City_ID,City,Country,Max Temp,Current Description,Lat,Lng,Hotel Name
1,Georgetown,MY,82.0,few clouds,5.4112,100.3354,Cititel Penang
4,Avarua,CK,84.2,light rain,-21.2078,-159.775,Paradise Inn
5,Puerto Ayora,EC,77.0,light rain,-0.7393,-90.3518,Castillo Galapagos
10,Bambous Virieux,MU,79.0,light rain,-20.3428,57.7575,Casa Tia Villa
12,Ahipara,NZ,72.79,scattered clouds,-35.1667,173.1667,Ahipara Holiday Park
15,Moerai,PF,82.08,few clouds,-22.4333,-151.3333,Le Manotel
16,Manaure,CO,78.73,overcast clouds,11.7751,-72.4445,Hotel Palaaima
18,Tramandai,BR,69.57,clear sky,-29.9847,-50.1336,Hotel Da Praia
19,Puerto Escondido,MX,80.6,few clouds,15.85,-97.0667,Aldea del Bazar Hotel and Spa
21,Cabo San Lucas,MX,68.0,few clouds,22.8909,-109.9124,Hotel Tesoro Los Cabos
23,Mataura,NZ,73.42,light rain,-46.1927,168.8643,Ellie's Villa
24,Miraflores,MX,68.0,few clouds,19.2167,-98.8083,Hotel Mansión
26,Zhenhai,CN,69.8,clear sky,24.2582,118.0905,Xiamen Onehigh Pavilion Homestay
28,Chimore,BO,78.53,overcast clouds,-16.9833,-65.1333,Bichito
29,Castro,BR,58.23,clear sky,-24.7911,-50.0119,CHACARA BAILLY
30,Port Elizabeth,ZA,64.4,clear sky,-33.918,25.5701,39 On Nile Guest House
34,Vaini,TO,77.0,moderate rain,-21.2,-175.2,Keleti Beach Resort
36,Cape Town,ZA,66.99,clear sky,-33.9258,18.4232,"Radisson Blu Hotel Waterfront, Cape Town"
37,Te Anau,NZ,67.37,heavy intensity rain,-45.4167,167.7167,Kingsgate Hotel Te Anau
38,Carnarvon,AU,80.6,scattered clouds,-24.8667,113.6333,Hospitality Carnarvon
39,San Juan,AR,86.09,overcast clouds,-31.5375,-68.5364,Hotel Provincial
41,Rikitea,PF,77.63,scattered clouds,-23.1203,-134.9692,Pension Maro'i
42,Kalmunai,LK,76.19,scattered clouds,7.4167,81.8167,VS Villa
43,Bluff,NZ,63.75,light rain,-46.6,168.3333,Bluff Homestead - Guesthouse & Campervan Park
45,Vangaindrano,MG,75.69,clear sky,-23.35,47.6,Hotel Fanilo
47,Hithadhoo,MV,81.61,clear sky,-0.6,73.0833,Scoop Guest House
48,Nanakuli,US,78.8,clear sky,21.3906,-158.1547,Camp Pālehua
51,Port Alfred,ZA,64.0,overcast clouds,-33.5906,26.891,The Halyards Hotel
54,New Norfolk,AU,61.0,overcast clouds,-42.7826,147.0587,The Shingles Riverside Cottages
57,Port Moresby,PG,87.8,haze,-9.4431,147.1797,Lamana Hotel
58,Busselton,AU,66.0,scattered clouds,-33.65,115.3333,Observatory Guest House
59,San Andres,CO,80.6,few clouds,12.5847,-81.7006,Hotel Arena Blanca
60,Hervey Bay,AU,84.0,overcast clouds,-25.2986,152.8535,Shelly Bay Resort
61,Ekuvukeni,ZA,66.16,overcast clouds,-28.4675,30.1551,Sibeko Resident
62,Bandarbeyla,SO,75.11,broken clouds,9.4942,50.8122,JABIR HOTEL
65,Meulaboh,ID,78.08,overcast clouds,4.1363,96.1285,Kost Pria
66,Mersing,MY,80.6,few clouds,2.4312,103.8405,Timotel Hotel
68,East London,ZA,70.59,light rain,-33.0153,27.9116,Tu Casa
71,Selma,US,64.4,clear sky,36.5708,-119.6121,Holiday Inn Selma-Swancourt
73,Sao Filipe,CV,69.49,overcast clouds,14.8961,-24.4956,Tortuga B&B
75,Hilo,US,78.8,broken clouds,19.7297,-155.09,Hilo Hawaiian Hotel
77,Lompoc,US,60.01,clear sky,34.6391,-120.4579,Holiday Inn Express Lompoc
78,Port-Gentil,GA,81.84,overcast clouds,-0.7193,8.7815,Fengshui Residence
81,Arraial Do Cabo,BR,75.04,light rain,-22.9661,-42.0278,Pousada Porto Praia
83,Ponta Do Sol,PT,57.99,scattered clouds,32.6667,-17.1,Hotel do Campo
84,Balabac,PH,81.73,overcast clouds,7.9868,117.0645,Sing and Swing Lodge
86,Karratha,AU,81.61,clear sky,-20.7377,116.8463,ibis Styles Karratha
87,Tura,IN,56.34,clear sky,25.5198,90.2201,Hotel RIKMAN Continental
90,Saint-Philippe,RE,80.6,light rain,-21.3585,55.7679,"Chambres d'hôte ""La Trinité"""
92,Butaritari,KI,80.94,few clouds,3.0707,172.7902,Isles Sunset Lodge
93,Tautira,PF,86.0,scattered clouds,-17.7333,-149.15,Pension Oaoa
94,Punta Arenas,CL,62.6,broken clouds,-53.15,-70.9167,Hotel Dreams Del Estrecho
95,Bustamante,MX,68.02,overcast clouds,26.5333,-100.5,Hotel Hacienda los Nogales
96,Santa Isabel,BR,68.0,broken clouds,-23.3156,-46.2214,Chácara Sombra do Altíssimo
97,Kapaa,US,75.2,clear sky,22.0752,-159.319,Sheraton Kauai Resort at Coconut Beach
98,Atuona,PF,79.72,few clouds,-9.8,-139.0333,Villa Enata
99,Sola,VU,89.6,broken clouds,-13.8833,167.55,Leumerus Bungalows
100,Sao Sebastiao,BR,71.46,scattered clouds,-23.76,-45.4097,Hotel Recanto dos Pássaros
102,Nosy Varika,MG,77.27,clear sky,-20.5833,48.5333,Hotel Volazara
103,Chinchani,IN,70.92,few clouds,19.8667,72.7,Vasantshrushti Farm
106,Broken Hill,AU,75.2,clear sky,-31.95,141.4333,Royal Exchange Hotel
108,Eyl,SO,73.27,clear sky,7.9803,49.8164,Amiin Hotel
110,Yen Bai,VN,68.81,overcast clouds,21.7,104.8667,AK MOTEL
114,Bredasdorp,ZA,57.2,scattered clouds,-34.5322,20.0403,Bredasdorp Country Manor
115,Hermanus,ZA,55.0,clear sky,-34.4187,19.2345,Misty Waves Boutique Hotel
116,Kokstad,ZA,62.22,broken clouds,-30.5472,29.4241,Majestic Bed and Breakfast
117,Port Blair,IN,77.52,clear sky,11.6667,92.75,Welcomhotel Bay Island Port Blair
121,Saldanha,ZA,62.6,clear sky,-33.0117,17.9442,Blue Bay Lodge
126,Kahului,US,77.0,few clouds,20.8947,-156.47,Maui Seaside Hotel
128,Mar Del Plata,AR,62.01,overcast clouds,-38.0023,-57.5575,Gran Hotel Mar del Plata
129,Necochea,AR,59.0,few clouds,-38.5473,-58.7368,dyd -mar Hotel
130,Payo,ID,76.33,overcast clouds,-3.7508,103.6372,Mess keban agung
135,Nishihara,JP,68.0,few clouds,26.1842,127.7558,Minshuku Agaihama
142,Arvi,IN,56.25,few clouds,20.9833,78.2333,Geet shirbhate
144,Ancud,CL,64.99,clear sky,-41.8697,-73.8203,Hotel Arena Gruesa
145,Mananara,MG,75.36,broken clouds,-16.1667,49.7667,Chez Roger
147,Esperance,AU,78.8,few clouds,-33.8667,121.9,Hospitality Esperance
150,Mayumba,GA,78.31,light rain,-3.432,10.6554,LIKWALE LODGE
152,Kruisfontein,ZA,63.0,overcast clouds,-34.0033,24.7314,Oyster Bay House Rental
153,Kirakira,SB,85.24,clear sky,-10.4544,161.9205,SanBiz Lodge
154,Arlit,NE,66.0,overcast clouds,18.7369,7.3853,Case de Passage De la Prefecture
157,Kaduna,NG,67.21,scattered clouds,10.5222,7.4383,HAMDALA HOTEL
160,Ulladulla,AU,68.0,broken clouds,-35.35,150.4667,Sandpiper Motel
162,Tocopilla,CL,70.03,scattered clouds,-22.092,-70.1979,Hotel Galvarino
163,Keti Bandar,PK,65.44,clear sky,24.1447,67.4497,Haji laloo memon house
164,Constitucion,CL,57.87,clear sky,-35.3333,-72.4167,Hotel Boutique Las Azucenas
166,Islamkot,PK,59.07,clear sky,24.6997,70.17699999999999,Haji Hotel
167,Pacific Grove,US,57.0,clear sky,36.6177,-121.9166,Lovers Point Inn
168,Wanning,CN,70.81,overcast clouds,18.8003,110.3967,Paradise Hotel
169,Alice Springs,AU,87.8,clear sky,-23.7,133.8833,Desert Palms Alice Springs
170,Namatanai,PG,85.66,light rain,-3.6667,152.4333,Namatanai Hotel
172,Ribeira Grande,PT,58.91,clear sky,38.5167,-28.7,Quinta da Meia Eira
173,Bubaque,GW,79.83,clear sky,11.2833,-15.8333,"Casa Dora, Bubaque"
177,Tremedal,BR,70.23,overcast clouds,-14.9758,-41.4108,Pousada Estillos
178,Kaitangata,NZ,64.99,overcast clouds,-46.2817,169.8464,Kaitangata Motor Camp
181,Lom Sak,TH,68.0,few clouds,16.7798,101.2422,บ้านวรฉัตร หล่มสัก
182,Dicabisagan,PH,78.15,few clouds,17.0818,122.4157,Nancy Montanes Bernardo
183,Surt,LY,69.84,overcast clouds,31.2089,16.5887,الهادي ابوشعاله سرت
184,Bac Lieu,VN,78.73,clear sky,9.285,105.7244,Khách sạn Sài Gòn Bạc Liêu
187,Mareeba,AU,91.99,overcast clouds,-17.0,145.4333,Trinity Plains Tourist Park
188,Nambutalai,IN,72.07,broken clouds,9.7167,79.0,Avadiyan Pond
189,Itoman,JP,68.0,few clouds,26.1247,127.6694,Southern Beach Hotel & Resort Okinawa
190,Codrington,AU,60.26,overcast clouds,-38.2667,141.9667,Codrington Gardens Bed And Breakfast
196,Coquimbo,CL,60.8,clear sky,-29.9533,-71.3436,Hotel San Juan
200,Puerto Del Rosario,ES,60.8,overcast clouds,28.5004,-13.8627,Hotel JM Puerto del Rosario
201,Ghanzi,BW,64.44,light rain,-21.5667,21.7833,Ghanzi Farmhouse
204,Nouadhibou,MR,62.6,clear sky,20.930999999999997,-17.0347,El Medina
206,Bull Savanna,JM,72.73,clear sky,17.8868,-77.5902,Big Red's
207,Lorengau,PG,84.11,overcast clouds,-2.0226,147.2712,Lorengau Harbourside Hotel
208,Airai,TL,69.48,overcast clouds,-8.9266,125.4092,Juvinal Martin
211,Victoria,HK,69.01,clear sky,22.2855,114.1577,Mini Hotel Central
212,Soure,BR,78.76,clear sky,-0.7167,-48.5233,Casarão
215,Vila Velha,BR,69.8,overcast clouds,-20.3297,-40.2925,Hotel Vitória Palace
216,Padang,ID,78.8,few clouds,-0.9492,100.3543,Mercure Padang
218,San Cristobal,VE,67.78,overcast clouds,7.7669,-72.225,Pirineos
220,Comodoro Rivadavia,AR,59.0,clear sky,-45.8667,-67.5,Austral Hotel
222,Rawson,AR,58.12,clear sky,-43.3002,-65.1023,Hosteria Sampedro
223,Sahuaripa,MX,67.78,clear sky,29.05,-109.2333,Hotel El Molino
224,Umarizal,BR,80.1,broken clouds,-5.9906,-37.8144,Pousada Vai e Vem
228,Luanda,AO,78.8,broken clouds,-8.8368,13.2343,EPIC SANA Luanda
229,Santiago Del Estero,AR,81.0,clear sky,-27.7951,-64.2615,Hotel Urbano
231,San Jose,US,64.99,broken clouds,37.3394,-121.895,The Westin San Jose
233,Paka,MY,77.0,scattered clouds,4.6374,103.4368,Rumbia Resort Villa Paka Terengganu
235,Cananeia,BR,72.25,clear sky,-25.0147,-47.9267,Casa azul
236,Puerto Carreno,CO,86.59,overcast clouds,6.189,-67.4859,Casa Hotel Victoria
237,Hobart,AU,64.4,broken clouds,-42.8794,147.3294,St Ives Hobart Accommodation Tasmania
239,Guerrero Negro,MX,66.54,clear sky,27.9769,-114.0611,"Casa Laguna, Bed & Breakfast"
241,Kavaratti,IN,81.09,overcast clouds,10.5669,72.642,Hotels in Lakshadweep Islands
242,Tres Lagoas,BR,70.61,clear sky,-20.7511,-51.6783,Druds Express Hotel
245,Kismayo,SO,76.78,clear sky,-0.3582,42.5454,Agan-Hotel
246,Maneadero,MX,55.99,clear sky,31.7167,-116.5667,Casa De Thompson
247,Kavieng,PG,85.1,clear sky,-2.5744,150.7967,Nusa Island Retreat
248,Lebu,CL,58.86,overcast clouds,-37.6167,-73.65,Hostal Las Lilas
252,Potchefstroom,ZA,59.85,clear sky,-26.7167,27.1,Melrose Place Guestrooms
256,Piacabucu,BR,78.51,overcast clouds,-10.4056,-36.4344,Piaçabuçu News
257,San Lorenzo,PY,73.4,clear sky,-25.3333,-57.5333,Canarias Hotel
258,Ballina,AU,80.6,scattered clouds,-28.8667,153.5667,Ramada Hotel & Suites by Wyndham Ballina Byron
260,Pisco,PE,71.6,broken clouds,-13.7,-76.2167,Hotel San Isidro Oficial
261,Bengkulu,ID,78.64,overcast clouds,-3.8004,102.2655,Grage Hotel Bengkulu
264,Bosaso,SO,73.13,clear sky,11.2842,49.1816,Red Sea Hotel
265,Tual,ID,83.88,broken clouds,-5.6667,132.75,Grand Vilia Hotel
266,Alofi,NU,87.8,broken clouds,-19.0595,-169.9187,Taloa Heights
269,Rio Gallegos,AR,62.6,clear sky,-51.6226,-69.2181,Hotel Santa Cruz
270,Impfondo,CG,73.53,overcast clouds,1.6381,18.0667,Préfecture de la Likouala
271,Isangel,VU,84.2,scattered clouds,-19.55,169.2667,Volcano Sea View Tree House
273,Ingraj Bazar,IN,55.49,clear sky,25.0,88.15,Hotel Samrat Malda
275,Santa Quiteria,BR,77.94,clear sky,-4.3319,-40.1567,Tahen Hotel
276,Mahebourg,MU,78.8,light rain,-20.4081,57.7,Shandrani Beachcomber Resort & Spa
280,Panalingaan,PH,82.04,overcast clouds,8.7842,117.4231,I Love Panalingaan View Deck
281,San Patricio,US,63.0,broken clouds,28.017,-97.5169,"Motel 6 Sinton, TX"
284,Diego De Almagro,CL,59.72,clear sky,-26.3667,-70.05,hotel luna del desierto
285,George,ZA,60.8,clear sky,-33.963,22.4617,Protea Hotel by Marriott George King George
290,Tuatapere,NZ,63.72,light rain,-46.1333,167.6833,Ron and Tony's Bed & Breakfast
291,Itarantim,BR,72.66,overcast clouds,-15.6597,-40.0656,Pousada Buterfly
294,Coihaique,CL,66.2,clear sky,-45.5752,-72.0662,Diego De Almagro Coyhaique
296,Ladario,BR,73.38,clear sky,-19.0047,-57.6017,Hotel Fazenda 4 cantos
298,Yulara,AU,87.8,clear sky,-25.2406,130.9889,Desert Gardens Hotel - Ayers Rock Resort
300,Touros,BR,80.6,few clouds,-5.1989,-35.4608,INN NEW HORIZON
307,Cam Ranh,VN,78.8,few clouds,11.9214,109.1591,OYO 598 Peony Hotel
308,Harper,LR,79.2,clear sky,4.375,-7.7169,Screensaver
311,Benedita,PT,55.99,few clouds,39.4247,-8.97,Residência DonaMaria
312,Byron Bay,AU,80.6,scattered clouds,-28.65,153.6167,Backpackers Inn on the Beach
313,Myitkyina,MM,56.84,broken clouds,25.3833,97.4,Shwe Phyu Hotel
314,Cidreira,BR,70.52,clear sky,-30.1811,-50.2056,Hotel Castelo
315,Balclutha,NZ,64.99,light rain,-46.2339,169.75,Hotel South Otago
316,Dingle,PH,76.05,heavy intensity rain,10.9995,122.6711,SEGAYA PROPERTY
317,Trairi,BR,79.84,clear sky,-3.2778,-39.2689,janelas do mar
320,Natal,BR,80.6,scattered clouds,-5.795,-35.2094,Villa Park Hotel | Natal
321,Sungaipenuh,ID,70.54,moderate rain,-2.0833,101.3833,Hotel Jaya Wisata 2
324,Lichtenburg,ZA,60.12,clear sky,-26.151999999999997,26.1597,Kennzy Guest House
326,Urucara,BR,76.73,overcast clouds,-2.5364,-57.76,Hotel japa
329,Tulum,MX,79.0,scattered clouds,20.2167,-87.4667,Kin Ha Tulum
330,Sao Joao Da Barra,BR,71.28,overcast clouds,-21.6403,-41.0511,Pousada Porto De Canoas
332,Riyadh,SA,55.4,clear sky,24.6877,46.7219,InterContinental Riyadh
334,Idah,NG,75.38,overcast clouds,7.1065,6.7342,Ubiga Hotel Idah
337,Tiarei,PF,86.0,scattered clouds,-17.5333,-149.3333,Le Rocher de Tahiti
338,Acapulco,MX,80.6,few clouds,16.8634,-99.8901,HS Hotsson Smart Acapulco
342,Hirara,JP,71.6,scattered clouds,24.8,125.2833,Hotel Atoll Emerald Miyakojima
343,Lady Lake,US,64.4,clear sky,28.9175,-81.9229,Holiday Inn Express & Suites the Villages
345,Lagoa,PT,57.79,scattered clouds,39.05,-27.9833,Casa Das Faias
346,Mount Isa,AU,86.0,broken clouds,-20.7333,139.5,ibis Styles Mt Isa Verona
347,Richards Bay,ZA,73.71,scattered clouds,-28.783,32.0377,BON Hotel Waterfront Richards Bay
349,Pochutla,MX,80.01,scattered clouds,15.7432,-96.4661,Hotel Posada San Jose
351,Paita,PE,75.74,broken clouds,-5.0892,-81.1144,Hotel Náutico de Paita
354,Manavalakurichi,IN,78.8,mist,8.1333,77.3,Udaya Boys Hostel
355,La Asuncion,VE,76.08,scattered clouds,11.0333,-63.8628,Colinas de Matasiete
358,Ixtapa,MX,71.6,few clouds,20.7,-105.2,Container Inn Puerto Vallarta
362,Omboue,GA,78.85,overcast clouds,-1.5746,9.2618,Hotel Olako
363,Viru,PE,75.18,overcast clouds,-8.4167,-78.75,AYAR PORTENTOS DE MONTAÑA
364,Geraldton,AU,73.4,broken clouds,-28.7667,114.6,Broadwater Mariner Resort
365,Laguna,US,62.6,clear sky,38.421,-121.4238,Holiday Inn Express & Suites Elk Grove Central - Hwy 99
366,Saint George,US,60.8,clear sky,37.1041,-113.5841,Best Western Plus Abbey Inn
368,Maragogi,BR,77.99,overcast clouds,-9.0122,-35.2225,Salinas do Maragogi All Inclusive Resort
369,Lata,PT,55.0,light rain,40.1629,-8.3327,Casa Maquia
370,Coruripe,BR,78.3,overcast clouds,-10.1256,-36.1756,Pousada e Hotel Litoral Sul
371,Santa Maria Del Oro,MX,65.8,overcast clouds,25.9333,-105.3667,Hotel Palacio Del Sol
373,Neuquen,AR,68.0,broken clouds,-38.9516,-68.0591,Hotel del Comahue
374,Road Town,VG,78.01,few clouds,18.4167,-64.6167,"ZINGARA 76ft Catamaran, full crew-all included"
375,Kathu,TH,84.0,few clouds,7.9178,98.3332,Novotel Phuket Resort
377,Guararapes,BR,78.8,clear sky,-21.2608,-50.6428,Hotel Nacional Business
378,Sesheke,ZM,68.09,overcast clouds,-17.4759,24.2968,Protea Hotel by Marriott Zambezi River Lodge
380,Itarema,BR,79.7,clear sky,-2.9248,-39.9167,"Sea Lounge! Bar, Club & Restaurant"
382,Flinders,AU,73.0,overcast clouds,-34.5833,150.8552,Shellharbour Resort & Conference Centre
384,Waipawa,NZ,70.0,overcast clouds,-41.4122,175.5153,Tora Coastal Walk
387,Malakal,SS,67.69,clear sky,9.5334,31.6605,Nile Palace Hotel
390,Cabedelo,BR,80.6,clear sky,-6.9811,-34.8339,Hotel Pigalle
392,Cordoba,AR,80.01,clear sky,-31.4135,-64.1811,Sheraton Cordoba Hotel
394,Marsa Matruh,EG,55.4,clear sky,31.3525,27.2453,Beau Site
396,San Quintin,MX,61.54,clear sky,30.4833,-115.95,Old Mill Hotel
397,Makueni,KE,66.33,overcast clouds,-1.8041,37.6203,WOTE TECHNICAL HOSTELS
398,Makakilo City,US,78.8,clear sky,21.3469,-158.0858,Marriott's Ko Olina Beach Club
400,Antofagasta,CL,66.2,clear sky,-23.65,-70.4,Holiday Inn Express Antofagasta
401,Grand Gaube,MU,79.0,clear sky,-20.0064,57.6608,Veranda Paul et Virginie Hotel & Spa
403,Souillac,MU,78.8,light rain,-20.5167,57.5167,Shanti Maurice Resort & Spa
404,Paidha,UG,63.84,overcast clouds,2.4167,30.9855,OPIPAAF (OTHUMBA PITHUA PALWONGA )
407,Buala,SB,85.03,moderate rain,-8.145,159.5921,Maringe Lagoon Lodge
408,Namibe,AO,72.03,broken clouds,-15.1961,12.1522,Hotel Chik Chik Namibe
411,Ratnagiri,IN,73.89,overcast clouds,16.9833,73.3,Hotel Landmark
412,Sambava,MG,75.72,broken clouds,-14.2667,50.1667,Melrose
413,Lingao,CN,68.05,overcast clouds,19.9103,109.6859,Lingao Ditai Inn
416,Batemans Bay,AU,68.0,few clouds,-35.7167,150.1833,Batemans Bay Marina Resort
419,Phan Thiet,VN,77.74,scattered clouds,10.9333,108.1,Hotel Saigon-PT
420,Kawalu,ID,77.54,overcast clouds,-7.3817,108.2082,KOSAN UNGU UNSIK
421,Salalah,OM,69.8,few clouds,17.0151,54.0924,HAMDAN PLAZA HOTEL SALALAH
425,Mandera,KE,76.35,broken clouds,3.9366,41.867,Kornesh Hotel and Lodging
430,Ngunguru,NZ,68.81,scattered clouds,-35.6167,174.5,Pacific Rendezvous Motel Resort
431,Encruzilhada,BR,68.67,moderate rain,-15.5314,-40.9094,Hotel e Restaurante Rio Pardo
432,Pobe,BJ,77.09,scattered clouds,6.9801,2.6649,Hôtel Étoile d'Or de Pobé
434,Mahibadhoo,MV,80.83,clear sky,3.7833,72.9667,Omadhoo Inn
435,Khorramshahr,IR,55.4,clear sky,30.4397,48.1664,دفتر نمایندگی شرکت بازاریابان ایرانیان زمینBIZ
437,Valdivia,CL,60.8,clear sky,-39.8142,-73.2459,Hostal Entre Rios
442,Labuhan,ID,79.59,overcast clouds,-6.8844,112.2051,PT PPI Lamongan Tambak C
443,Chuy,UY,65.89,few clouds,-33.6971,-53.4616,Nuevo Hotel Plaza
444,Villa Carlos Paz,AR,79.0,clear sky,-31.4241,-64.4978,Monte Carlo
445,Mecca,SA,70.2,clear sky,21.4267,39.8261,"Makkah Clock Royal Tower, A Fairmont Hotel"
447,Vinces,EC,82.4,heavy intensity rain,-1.55,-79.7333,Rizz hotel
450,Faanui,PF,81.79,clear sky,-16.4833,-151.75,Bora-Bora Pearl Beach Resort & Spa
456,Curup,ID,72.91,overcast clouds,-3.4667,102.5333,Ayi The Costel
457,Carutapera,BR,77.14,light rain,-1.195,-46.02,Lidera
459,Karonga,MW,73.45,light rain,-9.9333,33.9333,Sumuka Inn
460,Diffa,NE,64.8,clear sky,13.3154,12.6113,ProDAF/Diffa
463,Paranaiba,BR,71.17,clear sky,-19.6772,-51.1908,Villa Rica Park Hotel GMR
464,Popondetta,PG,82.26,overcast clouds,-8.7537,148.2534,Timos Transit House
465,Sabha,LY,67.03,overcast clouds,27.0377,14.4283,Foundation Taaj Asala for Historical Research and Archeology
466,Port Shepstone,ZA,74.43,overcast clouds,-30.7414,30.455,My Den Beachfront B&B And Self-Catering
467,Catia La Mar,VE,82.4,few clouds,10.6038,-67.0303,HOTEL PLAYA GRANDE CARIBE
468,Pemangkat,ID,78.12,overcast clouds,1.1667,108.9667,Kost H.Syamsuddin
469,Weligama,LK,74.44,scattered clouds,5.9667,80.4167,Weligama Bay Resort
470,Qeshm,IR,62.6,clear sky,26.9581,56.2719,Qeshm Kavan Hotel
471,Mega,ET,61.43,broken clouds,4.05,38.3,Amanuel Guest House
473,Mount Gambier,AU,60.8,overcast clouds,-37.8333,140.7667,Commodore on the Park
475,Vilhena,BR,69.82,overcast clouds,-12.7406,-60.1458,Hotel Mirage
476,Baculin,PH,79.16,heavy intensity rain,7.4525,126.5842,Shovy's Cove
477,Tinaquillo,VE,74.17,broken clouds,9.9186,-68.3047,Hotel Los Copihues
478,Pandan,PH,79.92,overcast clouds,14.0453,124.1694,Bonifacio Lodge
479,Rosarito,MX,64.0,clear sky,32.3333,-117.0333,Hotel Festival Plaza Rosarito
480,Thabazimbi,ZA,66.99,broken clouds,-24.5917,27.4116,eagels rest
481,Los Llanos De Aridane,ES,60.8,scattered clouds,28.6585,-17.9182,Valle Aridane
486,Mitsamiouli,KM,82.44,moderate rain,-11.3847,43.2844,Foyer ADM
488,Tartagal,AR,73.27,broken clouds,-22.5164,-63.8013,Almuñecar Hotel
489,Cap Malheureux,MU,79.0,clear sky,-19.9842,57.6142,Pereybere Hotel & Spa
493,Sinnamary,GF,78.03,overcast clouds,5.3833,-52.95,ALETHEIA Appartement Sinnamary
499,Inirida,CO,75.43,overcast clouds,3.8653,-67.9239,Fuente del Guania Hotel de Lujo
504,Camana,PE,72.93,overcast clouds,-16.6228,-72.7111,Hostal Morales
505,Cairns,AU,91.99,broken clouds,-16.9167,145.7667,Mantra Trilogy Cairns
509,Dawei,MM,74.95,clear sky,14.0833,98.2,Hotel Dawei
510,Sur,OM,63.18,clear sky,22.5667,59.5289,Sur Plaza Hotel
511,Benjamin Constant,BR,77.0,broken clouds,-4.3831,-70.0311,CASA AVALIADA
516,Witu,KE,78.8,clear sky,-2.3889,40.4382,New City Guest House
518,Honiara,SB,86.63,very heavy rain,-9.4333,159.95,Heritage Park Hotel
519,Jutiapa,GT,68.5,clear sky,14.2833,-89.9,Hotel Ordoñez
522,Mogadishu,SO,77.25,clear sky,2.0371,45.3438,Hotel Juba
523,Ambovombe,MG,75.96,clear sky,-25.1667,46.0833,RELAHARA
524,Lang Son,VN,66.54,overcast clouds,21.8333,106.7333,Khai Nga Hotel
527,Alto Araguaia,BR,68.7,clear sky,-17.3147,-53.2153,Araguaia Palace Hotel
528,Bryan,US,57.2,clear sky,30.6744,-96.37,Best Western Premier Bryan College Station
532,Lazaro Cardenas,MX,75.31,clear sky,17.9583,-102.2,Collection O Hotel Quinta Antigua
536,Sao Felix Do Xingu,BR,73.13,overcast clouds,-6.6447,-51.995,Rio Xingu Camping
537,Abu Kamal,SY,55.2,clear sky,34.4506,40.9171,محطة التلفاز
541,Marawi,PH,77.0,overcast clouds,7.9986,124.2928,Derogongan Residence
544,Lambarene,GA,75.13,overcast clouds,-0.7001,10.2406,Le Refuge
545,Sawakin,SD,70.66,few clouds,19.1059,37.3321,فندق الدويم
546,Kintampo,GH,79.54,clear sky,8.0563,-1.7306,Adomaa Memorial Hotel
547,Gambela,ET,73.71,clear sky,8.25,34.5833,Solomon Debebe Hotel
552,Srandakan,ID,80.73,broken clouds,-7.9386,110.2506,Puri Brata
554,Boffa,GN,72.36,clear sky,10.1667,-14.0333,Hôtel Niara Belly
559,Tomatlan,MX,69.6,few clouds,19.9333,-105.25,Norma franco
561,Trindade,BR,71.6,broken clouds,-16.6494,-49.4889,Pousada Central
562,Bilma,NE,65.43,overcast clouds,18.6853,12.9164,Expeditions Ténére voyages
564,Puerto Boyaca,CO,79.03,broken clouds,5.9758,-74.5885,hotel juanes
567,Urupes,BR,77.0,clear sky,-21.2017,-49.29,Romera
569,Praia Da Vitoria,PT,55.99,few clouds,38.7333,-27.0667,Hotel Branco I
572,Takaka,NZ,71.01,overcast clouds,-40.85,172.8,Golden Bay Motels
574,Aquiraz,BR,82.4,few clouds,-3.9014,-38.3911,Pousada Rua Camurupim
576,Bontang,ID,80.76,overcast clouds,0.1333,117.5,KOPKAR Hotel Bintang Sintuk
577,Guhagar,IN,72.23,overcast clouds,17.4842,73.1929,Hotel Seawinds
580,Tiruchchendur,IN,73.4,mist,8.4833,78.1167,Hotel Udhayam International
581,Ifakara,TZ,72.48,light rain,-8.1333,36.6833,Tanzanian Training Centre for International Health
583,Colares,PT,55.99,broken clouds,38.7992,-9.4469,Arribas Sintra Hotel
586,Giyani,ZA,73.15,overcast clouds,-23.3025,30.7187,Kulani Country Lodge
589,Coachella,US,73.0,clear sky,33.6803,-116.1739,Fantasy Springs Resort Casino
590,Hokitika,NZ,66.31,overcast clouds,-42.7167,170.9667,Beachfront Hotel Hokitika
591,Zabid,YE,72.23,overcast clouds,14.1951,43.3152,دار الضيافة
593,Newcastle,AU,75.99,broken clouds,-32.9272,151.7765,NOAH'S on the beach
600,Bonthe,SL,78.73,broken clouds,7.5264,-12.505,Bonthe Holiday Village
602,Camargo,MX,65.97,few clouds,27.6667,-105.1667,Hotel Santa Fe
604,Sampit,ID,79.75,overcast clouds,-2.5333,112.95,Aquarius Boutique Hotel Sampit
605,Laguna De Perlas,NI,76.75,clear sky,12.3429,-83.6712,Hotel Best View
606,Fare,PF,81.97,clear sky,-16.7,-151.0167,Maitai Lapita Village Huahine
608,Kang,BW,65.32,broken clouds,-23.6752,22.7876,Kang Ultra Stop
610,Launceston,AU,62.6,overcast clouds,-41.45,147.1667,Hotel Grand Chancellor Launceston
611,Vanimo,PG,85.78,overcast clouds,-2.6741,141.3028,Vahmoneh Lodge Vanimo
612,Pahrump,US,64.99,clear sky,36.2083,-115.9839,Best Western Pahrump Oasis
613,Menongue,AO,64.08,overcast clouds,-14.6585,17.691,Ritz Lauca
617,Sibolga,ID,78.04,overcast clouds,1.7427,98.7792,Hotel Syariah CN Darussalam
619,Les Cayes,HT,74.73,scattered clouds,18.2,-73.75,Villa Orphee
622,Oriximina,BR,80.29,scattered clouds,-1.7656,-55.8661,Pousada Tia Amélia
623,Manokwari,ID,83.19,overcast clouds,-0.8667,134.0833,Swiss Belhotel Manokwari
626,Phangnga,TH,78.8,few clouds,8.4509,98.5298,Rattanapong Hotel
630,Kochi,IN,68.0,mist,9.9399,76.2602,Trident Hotel Cochin
632,Lianzhou,CN,60.76,overcast clouds,24.7811,112.3825,Qingcheng Tourism Industry
633,Caravelas,BR,76.06,overcast clouds,-17.7125,-39.2481,Pousada dos Navegantes
637,Mbalmayo,CM,71.6,broken clouds,3.5167,11.5,Hôtel les Nouveaux Jardins Des Tropiques
638,Sunrise Manor,US,66.2,clear sky,36.2111,-115.0731,Comfort Inn & Suites Las Vegas - Nellis
639,Vung Tau,VN,77.04,clear sky,10.345999999999998,107.0843,Seaside Resort
643,Vengurla,IN,75.2,haze,15.8667,73.6333,Tripvillas @ Golven Resorts
645,San Joaquin,US,62.6,clear sky,37.9333,-121.3011,University Plaza Waterfront Hotel
647,Ambunti,PG,76.37,overcast clouds,-4.2365,142.8448,Ambunti Lodge
652,Coahuayana,MX,69.8,clear sky,18.7333,-103.6833,Hotel Los Arcos
655,Obera,AR,65.97,clear sky,-27.4871,-55.1199,CABAÑAS DORALIA
659,Puerto Triunfo,CO,78.4,overcast clouds,5.8726,-74.6403,Hotel el Mirador
663,Naze,JP,66.2,few clouds,28.3667,129.4833,奄美ポートタワーホテル
664,Barabai,ID,81.88,broken clouds,-2.5833,115.3833,HOTEL BOURAQ INDAH PERMAI
666,Tandalti,SD,64.11,broken clouds,13.0167,31.8667,منزل : الهادي محمد مساعد
668,Prabumulih,ID,76.23,broken clouds,-3.45,104.25,OYO 2722 Lemon Residence Prabumulih
672,Marsh Harbour,BS,75.33,broken clouds,26.5412,-77.0636,Abaco Beach Resort
673,Auki,SB,84.36,clear sky,-8.7676,160.7034,Auki Motel
674,Kaabong,UG,67.98,overcast clouds,3.4836,34.1492,Rock Motel Ltd
675,Christchurch,NZ,84.2,few clouds,-43.5333,172.6333,"Chateau on the Park - Christchurch, a DoubleTree by Hilton"
676,Ambilobe,MG,73.13,broken clouds,-13.2,49.05,Hôtel & Restaurant DIANA Ambilobe
677,Thung Song,TH,82.99,few clouds,8.1645,99.6804,Jasmine Resort And Spa
678,Tubuala,PA,78.8,few clouds,9.5167,-79.0333,Río Nabagana
680,Kassala,SD,57.87,clear sky,15.450999999999999,36.4,Amassi Hotel Gash
681,Waw,SS,61.68,overcast clouds,7.7029,27.9953,Universal Gab Hotel
686,Nhamunda,BR,76.42,light rain,-2.1861,-56.7131,Pousada Da Praia
687,Presidente Medici,BR,73.96,moderate rain,-11.1753,-61.9014,Oliveira Palace Hotel
692,Poum,NC,80.64,clear sky,-20.2333,164.0167,Gîte kajeon
693,Half Moon Bay,US,64.4,clear sky,37.4636,-122.4286,"The Ritz-Carlton, Half Moon Bay"
694,Carambei,BR,58.41,clear sky,-24.9178,-50.0972,Hotel Wolthuis
